[
    {
        "id": 3901,
        "name": "Badakhshan",
        "countryId": 1,
        "countryCode": "AF",
        "stateId": "BDS",
        "latitude": "36.73477250",
        "longitude": "70.81199530"
    },
    {
        "id": 3871,
        "name": "Badghis",
        "countryId": 1,
        "countryCode": "AF",
        "stateId": "BDG",
        "latitude": "35.16713390",
        "longitude": "63.76953840"
    },
    {
        "id": 3875,
        "name": "Baghlan",
        "countryId": 1,
        "countryCode": "AF",
        "stateId": "BGL",
        "latitude": "36.17890260",
        "longitude": "68.74530640"
    },
    {
        "id": 3884,
        "name": "Balkh",
        "countryId": 1,
        "countryCode": "AF",
        "stateId": "BAL",
        "latitude": "36.75506030",
        "longitude": "66.89753720"
    },
    {
        "id": 3872,
        "name": "Bamyan",
        "countryId": 1,
        "countryCode": "AF",
        "stateId": "BAM",
        "latitude": "34.81000670",
        "longitude": "67.82121040"
    },
    {
        "id": 3892,
        "name": "Daykundi",
        "countryId": 1,
        "countryCode": "AF",
        "stateId": "DAY",
        "latitude": "33.66949500",
        "longitude": "66.04635340"
    },
    {
        "id": 3899,
        "name": "Farah",
        "countryId": 1,
        "countryCode": "AF",
        "stateId": "FRA",
        "latitude": "32.49532800",
        "longitude": "62.26266270"
    },
    {
        "id": 3889,
        "name": "Faryab",
        "countryId": 1,
        "countryCode": "AF",
        "stateId": "FYB",
        "latitude": "36.07956130",
        "longitude": "64.90595500"
    },
    {
        "id": 3870,
        "name": "Ghazni",
        "countryId": 1,
        "countryCode": "AF",
        "stateId": "GHA",
        "latitude": "33.54505870",
        "longitude": "68.41739720"
    },
    {
        "id": 3888,
        "name": "Ghōr",
        "countryId": 1,
        "countryCode": "AF",
        "stateId": "GHO",
        "latitude": "34.09957760",
        "longitude": "64.90595500"
    },
    {
        "id": 3873,
        "name": "Helmand",
        "countryId": 1,
        "countryCode": "AF",
        "stateId": "HEL",
        "latitude": "39.29893610",
        "longitude": "-76.61604720"
    },
    {
        "id": 3887,
        "name": "Herat",
        "countryId": 1,
        "countryCode": "AF",
        "stateId": "HER",
        "latitude": "34.35286500",
        "longitude": "62.20402870"
    },
    {
        "id": 3886,
        "name": "Jowzjan",
        "countryId": 1,
        "countryCode": "AF",
        "stateId": "JOW",
        "latitude": "36.89696920",
        "longitude": "65.66585680"
    },
    {
        "id": 3902,
        "name": "Kabul",
        "countryId": 1,
        "countryCode": "AF",
        "stateId": "KAB",
        "latitude": "34.55534940",
        "longitude": "69.20748600"
    },
    {
        "id": 3890,
        "name": "Kandahar",
        "countryId": 1,
        "countryCode": "AF",
        "stateId": "KAN",
        "latitude": "31.62887100",
        "longitude": "65.73717490"
    },
    {
        "id": 3879,
        "name": "Kapisa",
        "countryId": 1,
        "countryCode": "AF",
        "stateId": "KAP",
        "latitude": "34.98105720",
        "longitude": "69.62145620"
    },
    {
        "id": 3878,
        "name": "Khost",
        "countryId": 1,
        "countryCode": "AF",
        "stateId": "KHO",
        "latitude": "33.33384720",
        "longitude": "69.93716730"
    },
    {
        "id": 3876,
        "name": "Kunar",
        "countryId": 1,
        "countryCode": "AF",
        "stateId": "KNR",
        "latitude": "34.84658930",
        "longitude": "71.09731700"
    },
    {
        "id": 3900,
        "name": "Kunduz Province",
        "countryId": 1,
        "countryCode": "AF",
        "stateId": "KDZ",
        "latitude": "36.72855110",
        "longitude": "68.86789820"
    },
    {
        "id": 3891,
        "name": "Laghman",
        "countryId": 1,
        "countryCode": "AF",
        "stateId": "LAG",
        "latitude": "34.68976870",
        "longitude": "70.14558050"
    },
    {
        "id": 3897,
        "name": "Logar",
        "countryId": 1,
        "countryCode": "AF",
        "stateId": "LOG",
        "latitude": "34.01455180",
        "longitude": "69.19239160"
    },
    {
        "id": 3882,
        "name": "Nangarhar",
        "countryId": 1,
        "countryCode": "AF",
        "stateId": "NAN",
        "latitude": "34.17183130",
        "longitude": "70.62167940"
    },
    {
        "id": 3896,
        "name": "Nimruz",
        "countryId": 1,
        "countryCode": "AF",
        "stateId": "NIM",
        "latitude": "31.02614880",
        "longitude": "62.45041540"
    },
    {
        "id": 3880,
        "name": "Nuristan",
        "countryId": 1,
        "countryCode": "AF",
        "stateId": "NUR",
        "latitude": "35.32502230",
        "longitude": "70.90712360"
    },
    {
        "id": 3894,
        "name": "Paktia",
        "countryId": 1,
        "countryCode": "AF",
        "stateId": "PIA",
        "latitude": "33.70619900",
        "longitude": "69.38310790"
    },
    {
        "id": 3877,
        "name": "Paktika",
        "countryId": 1,
        "countryCode": "AF",
        "stateId": "PKA",
        "latitude": "32.26453860",
        "longitude": "68.52471490"
    },
    {
        "id": 3881,
        "name": "Panjshir",
        "countryId": 1,
        "countryCode": "AF",
        "stateId": "PAN",
        "latitude": "38.88023910",
        "longitude": "-77.17172380"
    },
    {
        "id": 3895,
        "name": "Parwan",
        "countryId": 1,
        "countryCode": "AF",
        "stateId": "PAR",
        "latitude": "34.96309770",
        "longitude": "68.81088490"
    },
    {
        "id": 3883,
        "name": "Samangan",
        "countryId": 1,
        "countryCode": "AF",
        "stateId": "SAM",
        "latitude": "36.31555060",
        "longitude": "67.96428630"
    },
    {
        "id": 3885,
        "name": "Sar-e Pol",
        "countryId": 1,
        "countryCode": "AF",
        "stateId": "SAR",
        "latitude": "36.21662800",
        "longitude": "65.93336000"
    },
    {
        "id": 3893,
        "name": "Takhar",
        "countryId": 1,
        "countryCode": "AF",
        "stateId": "TAK",
        "latitude": "36.66980130",
        "longitude": "69.47845410"
    },
    {
        "id": 3898,
        "name": "Urozgan",
        "countryId": 1,
        "countryCode": "AF",
        "stateId": "URU",
        "latitude": "32.92712870",
        "longitude": "66.14152630"
    },
    {
        "id": 3874,
        "name": "Zabul",
        "countryId": 1,
        "countryCode": "AF",
        "stateId": "ZAB",
        "latitude": "32.19187820",
        "longitude": "67.18944880"
    },
    {
        "id": 603,
        "name": "Berat County",
        "countryId": 3,
        "countryCode": "AL",
        "stateId": "01",
        "latitude": "40.69530120",
        "longitude": "20.04496620"
    },
    {
        "id": 629,
        "name": "Berat District",
        "countryId": 3,
        "countryCode": "AL",
        "stateId": "BR",
        "latitude": "40.70863770",
        "longitude": "19.94373140"
    },
    {
        "id": 607,
        "name": "Bulqizë District",
        "countryId": 3,
        "countryCode": "AL",
        "stateId": "BU",
        "latitude": "41.49425870",
        "longitude": "20.21471570"
    },
    {
        "id": 618,
        "name": "Delvinë District",
        "countryId": 3,
        "countryCode": "AL",
        "stateId": "DL",
        "latitude": "39.94813640",
        "longitude": "20.09558910"
    },
    {
        "id": 608,
        "name": "Devoll District",
        "countryId": 3,
        "countryCode": "AL",
        "stateId": "DV",
        "latitude": "40.64473470",
        "longitude": "20.95066360"
    },
    {
        "id": 610,
        "name": "Dibër County",
        "countryId": 3,
        "countryCode": "AL",
        "stateId": "09",
        "latitude": "41.58881630",
        "longitude": "20.23556470"
    },
    {
        "id": 605,
        "name": "Dibër District",
        "countryId": 3,
        "countryCode": "AL",
        "stateId": "DI",
        "latitude": "41.58881630",
        "longitude": "20.23556470"
    },
    {
        "id": 632,
        "name": "Durrës County",
        "countryId": 3,
        "countryCode": "AL",
        "stateId": "02",
        "latitude": "41.50809720",
        "longitude": "19.61631850"
    },
    {
        "id": 639,
        "name": "Durrës District",
        "countryId": 3,
        "countryCode": "AL",
        "stateId": "DR",
        "latitude": "41.37065170",
        "longitude": "19.52110630"
    },
    {
        "id": 598,
        "name": "Elbasan County",
        "countryId": 3,
        "countryCode": "AL",
        "stateId": "03",
        "latitude": "41.12666720",
        "longitude": "20.23556470"
    },
    {
        "id": 631,
        "name": "Fier County",
        "countryId": 3,
        "countryCode": "AL",
        "stateId": "04",
        "latitude": "40.91913920",
        "longitude": "19.66393090"
    },
    {
        "id": 627,
        "name": "Fier District",
        "countryId": 3,
        "countryCode": "AL",
        "stateId": "FR",
        "latitude": "40.72750400",
        "longitude": "19.56275960"
    },
    {
        "id": 604,
        "name": "Gjirokastër County",
        "countryId": 3,
        "countryCode": "AL",
        "stateId": "05",
        "latitude": "40.06728740",
        "longitude": "20.10452290"
    },
    {
        "id": 621,
        "name": "Gjirokastër District",
        "countryId": 3,
        "countryCode": "AL",
        "stateId": "GJ",
        "latitude": "40.06728740",
        "longitude": "20.10452290"
    },
    {
        "id": 617,
        "name": "Gramsh District",
        "countryId": 3,
        "countryCode": "AL",
        "stateId": "GR",
        "latitude": "40.86698730",
        "longitude": "20.18493230"
    },
    {
        "id": 600,
        "name": "Has District",
        "countryId": 3,
        "countryCode": "AL",
        "stateId": "HA",
        "latitude": "42.79013360",
        "longitude": "-83.61220120"
    },
    {
        "id": 594,
        "name": "Kavajë District",
        "countryId": 3,
        "countryCode": "AL",
        "stateId": "KA",
        "latitude": "41.18445290",
        "longitude": "19.56275960"
    },
    {
        "id": 628,
        "name": "Kolonjë District",
        "countryId": 3,
        "countryCode": "AL",
        "stateId": "ER",
        "latitude": "40.33732620",
        "longitude": "20.67946760"
    },
    {
        "id": 630,
        "name": "Korçë County",
        "countryId": 3,
        "countryCode": "AL",
        "stateId": "06",
        "latitude": "40.59056700",
        "longitude": "20.61689210"
    },
    {
        "id": 597,
        "name": "Korçë District",
        "countryId": 3,
        "countryCode": "AL",
        "stateId": "KO",
        "latitude": "40.59056700",
        "longitude": "20.61689210"
    },
    {
        "id": 614,
        "name": "Krujë District",
        "countryId": 3,
        "countryCode": "AL",
        "stateId": "KR",
        "latitude": "41.50947650",
        "longitude": "19.77107320"
    },
    {
        "id": 612,
        "name": "Kuçovë District",
        "countryId": 3,
        "countryCode": "AL",
        "stateId": "KC",
        "latitude": "40.78370630",
        "longitude": "19.87823480"
    },
    {
        "id": 601,
        "name": "Kukës County",
        "countryId": 3,
        "countryCode": "AL",
        "stateId": "07",
        "latitude": "42.08074640",
        "longitude": "20.41429230"
    },
    {
        "id": 623,
        "name": "Kukës District",
        "countryId": 3,
        "countryCode": "AL",
        "stateId": "KU",
        "latitude": "42.08074640",
        "longitude": "20.41429230"
    },
    {
        "id": 622,
        "name": "Kurbin District",
        "countryId": 3,
        "countryCode": "AL",
        "stateId": "KB",
        "latitude": "41.64126440",
        "longitude": "19.70559500"
    },
    {
        "id": 609,
        "name": "Lezhë County",
        "countryId": 3,
        "countryCode": "AL",
        "stateId": "08",
        "latitude": "41.78137590",
        "longitude": "19.80679160"
    },
    {
        "id": 595,
        "name": "Lezhë District",
        "countryId": 3,
        "countryCode": "AL",
        "stateId": "LE",
        "latitude": "41.78607300",
        "longitude": "19.64607580"
    },
    {
        "id": 596,
        "name": "Librazhd District",
        "countryId": 3,
        "countryCode": "AL",
        "stateId": "LB",
        "latitude": "41.18292320",
        "longitude": "20.31747690"
    },
    {
        "id": 599,
        "name": "Lushnjë District",
        "countryId": 3,
        "countryCode": "AL",
        "stateId": "LU",
        "latitude": "40.94198300",
        "longitude": "19.69964280"
    },
    {
        "id": 602,
        "name": "Malësi e Madhe District",
        "countryId": 3,
        "countryCode": "AL",
        "stateId": "MM",
        "latitude": "42.42451730",
        "longitude": "19.61631850"
    },
    {
        "id": 637,
        "name": "Mallakastër District",
        "countryId": 3,
        "countryCode": "AL",
        "stateId": "MK",
        "latitude": "40.52733760",
        "longitude": "19.78297910"
    },
    {
        "id": 635,
        "name": "Mat District",
        "countryId": 3,
        "countryCode": "AL",
        "stateId": "MT",
        "latitude": "41.59376750",
        "longitude": "19.99732440"
    },
    {
        "id": 638,
        "name": "Mirditë District",
        "countryId": 3,
        "countryCode": "AL",
        "stateId": "MR",
        "latitude": "41.76428600",
        "longitude": "19.90205090"
    },
    {
        "id": 619,
        "name": "Peqin District",
        "countryId": 3,
        "countryCode": "AL",
        "stateId": "PQ",
        "latitude": "41.04709020",
        "longitude": "19.75023840"
    },
    {
        "id": 625,
        "name": "Përmet District",
        "countryId": 3,
        "countryCode": "AL",
        "stateId": "PR",
        "latitude": "40.23618370",
        "longitude": "20.35173340"
    },
    {
        "id": 606,
        "name": "Pogradec District",
        "countryId": 3,
        "countryCode": "AL",
        "stateId": "PG",
        "latitude": "40.90153140",
        "longitude": "20.65562890"
    },
    {
        "id": 620,
        "name": "Pukë District",
        "countryId": 3,
        "countryCode": "AL",
        "stateId": "PU",
        "latitude": "42.04697720",
        "longitude": "19.89609680"
    },
    {
        "id": 624,
        "name": "Sarandë District",
        "countryId": 3,
        "countryCode": "AL",
        "stateId": "SR",
        "latitude": "39.85921190",
        "longitude": "20.02710010"
    },
    {
        "id": 611,
        "name": "Shkodër County",
        "countryId": 3,
        "countryCode": "AL",
        "stateId": "10",
        "latitude": "42.15037100",
        "longitude": "19.66393090"
    },
    {
        "id": 626,
        "name": "Shkodër District",
        "countryId": 3,
        "countryCode": "AL",
        "stateId": "SH",
        "latitude": "42.06929850",
        "longitude": "19.50325590"
    },
    {
        "id": 593,
        "name": "Skrapar District",
        "countryId": 3,
        "countryCode": "AL",
        "stateId": "SK",
        "latitude": "40.53499460",
        "longitude": "20.28322170"
    },
    {
        "id": 616,
        "name": "Tepelenë District",
        "countryId": 3,
        "countryCode": "AL",
        "stateId": "TE",
        "latitude": "40.29666320",
        "longitude": "20.01816730"
    },
    {
        "id": 615,
        "name": "Tirana County",
        "countryId": 3,
        "countryCode": "AL",
        "stateId": "11",
        "latitude": "41.24275980",
        "longitude": "19.80679160"
    },
    {
        "id": 633,
        "name": "Tirana District",
        "countryId": 3,
        "countryCode": "AL",
        "stateId": "TR",
        "latitude": "41.32754590",
        "longitude": "19.81869820"
    },
    {
        "id": 636,
        "name": "Tropojë District",
        "countryId": 3,
        "countryCode": "AL",
        "stateId": "TP",
        "latitude": "42.39821510",
        "longitude": "20.16259550"
    },
    {
        "id": 634,
        "name": "Vlorë County",
        "countryId": 3,
        "countryCode": "AL",
        "stateId": "12",
        "latitude": "40.15009600",
        "longitude": "19.80679160"
    },
    {
        "id": 613,
        "name": "Vlorë District",
        "countryId": 3,
        "countryCode": "AL",
        "stateId": "VL",
        "latitude": "40.46606680",
        "longitude": "19.49135600"
    },
    {
        "id": 1118,
        "name": "Adrar Province",
        "countryId": 4,
        "countryCode": "DZ",
        "stateId": "01",
        "latitude": "26.41813100",
        "longitude": "-0.60147170"
    },
    {
        "id": 1119,
        "name": "Aïn Defla Province",
        "countryId": 4,
        "countryCode": "DZ",
        "stateId": "44",
        "latitude": "36.25094290",
        "longitude": "1.93938150"
    },
    {
        "id": 1122,
        "name": "Aïn Témouchent Province",
        "countryId": 4,
        "countryCode": "DZ",
        "stateId": "46",
        "latitude": "35.29926980",
        "longitude": "-1.13927920"
    },
    {
        "id": 1144,
        "name": "Algiers Province",
        "countryId": 4,
        "countryCode": "DZ",
        "stateId": "16",
        "latitude": "36.69972940",
        "longitude": "3.05761990"
    },
    {
        "id": 1103,
        "name": "Annaba Province",
        "countryId": 4,
        "countryCode": "DZ",
        "stateId": "23",
        "latitude": "36.80205080",
        "longitude": "7.52472430"
    },
    {
        "id": 1142,
        "name": "Batna Province",
        "countryId": 4,
        "countryCode": "DZ",
        "stateId": "05",
        "latitude": "35.59659540",
        "longitude": "5.89871390"
    },
    {
        "id": 1108,
        "name": "Béchar Province",
        "countryId": 4,
        "countryCode": "DZ",
        "stateId": "08",
        "latitude": "31.62380980",
        "longitude": "-2.21624430"
    },
    {
        "id": 1128,
        "name": "Béjaïa Province",
        "countryId": 4,
        "countryCode": "DZ",
        "stateId": "06",
        "latitude": "36.75152580",
        "longitude": "5.05568370"
    },
    {
        "id": 1114,
        "name": "Biskra",
        "countryId": 4,
        "countryCode": "DZ",
        "stateId": "07",
        "latitude": "34.84494370",
        "longitude": "5.72485670"
    },
    {
        "id": 1111,
        "name": "Blida Province",
        "countryId": 4,
        "countryCode": "DZ",
        "stateId": "09",
        "latitude": "36.53112300",
        "longitude": "2.89762540"
    },
    {
        "id": 1116,
        "name": "Bordj Bou Arréridj Province",
        "countryId": 4,
        "countryCode": "DZ",
        "stateId": "34",
        "latitude": "36.07399250",
        "longitude": "4.76302710"
    },
    {
        "id": 1104,
        "name": "Bouïra Province",
        "countryId": 4,
        "countryCode": "DZ",
        "stateId": "10",
        "latitude": "36.36918460",
        "longitude": "3.90061940"
    },
    {
        "id": 1125,
        "name": "Boumerdès Province",
        "countryId": 4,
        "countryCode": "DZ",
        "stateId": "35",
        "latitude": "36.68395590",
        "longitude": "3.62178020"
    },
    {
        "id": 1105,
        "name": "Chlef Province",
        "countryId": 4,
        "countryCode": "DZ",
        "stateId": "02",
        "latitude": "36.16935150",
        "longitude": "1.28910360"
    },
    {
        "id": 1121,
        "name": "Constantine Province",
        "countryId": 4,
        "countryCode": "DZ",
        "stateId": "25",
        "latitude": "36.33739110",
        "longitude": "6.66381200"
    },
    {
        "id": 1098,
        "name": "Djelfa Province",
        "countryId": 4,
        "countryCode": "DZ",
        "stateId": "17",
        "latitude": "34.67039560",
        "longitude": "3.25037610"
    },
    {
        "id": 1129,
        "name": "El Bayadh Province",
        "countryId": 4,
        "countryCode": "DZ",
        "stateId": "32",
        "latitude": "32.71488240",
        "longitude": "0.90566230"
    },
    {
        "id": 1099,
        "name": "El Oued Province",
        "countryId": 4,
        "countryCode": "DZ",
        "stateId": "39",
        "latitude": "33.36781100",
        "longitude": "6.85165110"
    },
    {
        "id": 1100,
        "name": "El Tarf Province",
        "countryId": 4,
        "countryCode": "DZ",
        "stateId": "36",
        "latitude": "36.75766780",
        "longitude": "8.30763430"
    },
    {
        "id": 1127,
        "name": "Ghardaïa Province",
        "countryId": 4,
        "countryCode": "DZ",
        "stateId": "47",
        "latitude": "32.49437410",
        "longitude": "3.64446000"
    },
    {
        "id": 1137,
        "name": "Guelma Province",
        "countryId": 4,
        "countryCode": "DZ",
        "stateId": "24",
        "latitude": "36.46274440",
        "longitude": "7.43308330"
    },
    {
        "id": 1112,
        "name": "Illizi Province",
        "countryId": 4,
        "countryCode": "DZ",
        "stateId": "33",
        "latitude": "26.16900050",
        "longitude": "8.48424650"
    },
    {
        "id": 1113,
        "name": "Jijel Province",
        "countryId": 4,
        "countryCode": "DZ",
        "stateId": "18",
        "latitude": "36.71796810",
        "longitude": "5.98325770"
    },
    {
        "id": 1126,
        "name": "Khenchela Province",
        "countryId": 4,
        "countryCode": "DZ",
        "stateId": "40",
        "latitude": "35.42694040",
        "longitude": "7.14601550"
    },
    {
        "id": 1138,
        "name": "Laghouat Province",
        "countryId": 4,
        "countryCode": "DZ",
        "stateId": "03",
        "latitude": "33.80783410",
        "longitude": "2.86282940"
    },
    {
        "id": 1134,
        "name": "M'Sila Province",
        "countryId": 4,
        "countryCode": "DZ",
        "stateId": "28",
        "latitude": "35.71866460",
        "longitude": "4.52334230"
    },
    {
        "id": 1124,
        "name": "Mascara Province",
        "countryId": 4,
        "countryCode": "DZ",
        "stateId": "29",
        "latitude": "35.39041250",
        "longitude": "0.14949880"
    },
    {
        "id": 1109,
        "name": "Médéa Province",
        "countryId": 4,
        "countryCode": "DZ",
        "stateId": "26",
        "latitude": "36.26370780",
        "longitude": "2.75878570"
    },
    {
        "id": 1132,
        "name": "Mila Province",
        "countryId": 4,
        "countryCode": "DZ",
        "stateId": "43",
        "latitude": "36.36479570",
        "longitude": "6.15269850"
    },
    {
        "id": 1140,
        "name": "Mostaganem Province",
        "countryId": 4,
        "countryCode": "DZ",
        "stateId": "27",
        "latitude": "35.95830540",
        "longitude": "0.33718890"
    },
    {
        "id": 1102,
        "name": "Naama Province",
        "countryId": 4,
        "countryCode": "DZ",
        "stateId": "45",
        "latitude": "33.26673170",
        "longitude": "-0.31286590"
    },
    {
        "id": 1101,
        "name": "Oran Province",
        "countryId": 4,
        "countryCode": "DZ",
        "stateId": "31",
        "latitude": "35.60823510",
        "longitude": "-0.56360900"
    },
    {
        "id": 1139,
        "name": "Ouargla Province",
        "countryId": 4,
        "countryCode": "DZ",
        "stateId": "30",
        "latitude": "32.22648630",
        "longitude": "5.72998210"
    },
    {
        "id": 1136,
        "name": "Oum El Bouaghi Province",
        "countryId": 4,
        "countryCode": "DZ",
        "stateId": "04",
        "latitude": "35.86887890",
        "longitude": "7.11082660"
    },
    {
        "id": 1130,
        "name": "Relizane Province",
        "countryId": 4,
        "countryCode": "DZ",
        "stateId": "48",
        "latitude": "35.73834050",
        "longitude": "0.75328090"
    },
    {
        "id": 1123,
        "name": "Saïda Province",
        "countryId": 4,
        "countryCode": "DZ",
        "stateId": "20",
        "latitude": "34.84152070",
        "longitude": "0.14560550"
    },
    {
        "id": 1141,
        "name": "Sétif Province",
        "countryId": 4,
        "countryCode": "DZ",
        "stateId": "19",
        "latitude": "36.30733890",
        "longitude": "5.56172790"
    },
    {
        "id": 1110,
        "name": "Skikda Province",
        "countryId": 4,
        "countryCode": "DZ",
        "stateId": "21",
        "latitude": "36.67211980",
        "longitude": "6.83509990"
    },
    {
        "id": 1143,
        "name": "Souk Ahras Province",
        "countryId": 4,
        "countryCode": "DZ",
        "stateId": "41",
        "latitude": "36.28010620",
        "longitude": "7.93840330"
    },
    {
        "id": 1135,
        "name": "Tamanghasset Province",
        "countryId": 4,
        "countryCode": "DZ",
        "stateId": "11",
        "latitude": "22.79029720",
        "longitude": "5.51932680"
    },
    {
        "id": 1117,
        "name": "Tébessa Province",
        "countryId": 4,
        "countryCode": "DZ",
        "stateId": "12",
        "latitude": "35.12906910",
        "longitude": "7.95928630"
    },
    {
        "id": 1106,
        "name": "Tiaret Province",
        "countryId": 4,
        "countryCode": "DZ",
        "stateId": "14",
        "latitude": "35.37086890",
        "longitude": "1.32178520"
    },
    {
        "id": 1120,
        "name": "Tindouf Province",
        "countryId": 4,
        "countryCode": "DZ",
        "stateId": "37",
        "latitude": "27.80631190",
        "longitude": "-5.72998210"
    },
    {
        "id": 1115,
        "name": "Tipasa Province",
        "countryId": 4,
        "countryCode": "DZ",
        "stateId": "42",
        "latitude": "36.54626500",
        "longitude": "2.18432850"
    },
    {
        "id": 1133,
        "name": "Tissemsilt Province",
        "countryId": 4,
        "countryCode": "DZ",
        "stateId": "38",
        "latitude": "35.60537810",
        "longitude": "1.81309800"
    },
    {
        "id": 1131,
        "name": "Tizi Ouzou Province",
        "countryId": 4,
        "countryCode": "DZ",
        "stateId": "15",
        "latitude": "36.70691100",
        "longitude": "4.23333550"
    },
    {
        "id": 1107,
        "name": "Tlemcen Province",
        "countryId": 4,
        "countryCode": "DZ",
        "stateId": "13",
        "latitude": "34.67802840",
        "longitude": "-1.36621600"
    },
    {
        "id": 488,
        "name": "Andorra la Vella",
        "countryId": 6,
        "countryCode": "AD",
        "stateId": "07",
        "latitude": "42.50631740",
        "longitude": "1.52183550"
    },
    {
        "id": 489,
        "name": "Canillo",
        "countryId": 6,
        "countryCode": "AD",
        "stateId": "02",
        "latitude": "42.59782490",
        "longitude": "1.65663770"
    },
    {
        "id": 487,
        "name": "Encamp",
        "countryId": 6,
        "countryCode": "AD",
        "stateId": "03",
        "latitude": "42.53597640",
        "longitude": "1.58367730"
    },
    {
        "id": 492,
        "name": "Escaldes-Engordany",
        "countryId": 6,
        "countryCode": "AD",
        "stateId": "08",
        "latitude": "42.49093790",
        "longitude": "1.58869660"
    },
    {
        "id": 493,
        "name": "La Massana",
        "countryId": 6,
        "countryCode": "AD",
        "stateId": "04",
        "latitude": "42.54562500",
        "longitude": "1.51473920"
    },
    {
        "id": 491,
        "name": "Ordino",
        "countryId": 6,
        "countryCode": "AD",
        "stateId": "05",
        "latitude": "42.59944330",
        "longitude": "1.54023270"
    },
    {
        "id": 490,
        "name": "Sant Julià de Lòria",
        "countryId": 6,
        "countryCode": "AD",
        "stateId": "06",
        "latitude": "42.45296310",
        "longitude": "1.49182350"
    },
    {
        "id": 221,
        "name": "Bengo Province",
        "countryId": 7,
        "countryCode": "AO",
        "stateId": "BGO",
        "latitude": "-9.10422570",
        "longitude": "13.72891670"
    },
    {
        "id": 218,
        "name": "Benguela Province",
        "countryId": 7,
        "countryCode": "AO",
        "stateId": "BGU",
        "latitude": "-12.80037440",
        "longitude": "13.91439900"
    },
    {
        "id": 212,
        "name": "Bié Province",
        "countryId": 7,
        "countryCode": "AO",
        "stateId": "BIE",
        "latitude": "-12.57279070",
        "longitude": "17.66888700"
    },
    {
        "id": 228,
        "name": "Cabinda Province",
        "countryId": 7,
        "countryCode": "AO",
        "stateId": "CAB",
        "latitude": "-5.02487490",
        "longitude": "12.34638750"
    },
    {
        "id": 226,
        "name": "Cuando Cubango Province",
        "countryId": 7,
        "countryCode": "AO",
        "stateId": "CCU",
        "latitude": "-16.41808240",
        "longitude": "18.80761950"
    },
    {
        "id": 217,
        "name": "Cuanza Norte Province",
        "countryId": 7,
        "countryCode": "AO",
        "stateId": "CNO",
        "latitude": "-9.23985130",
        "longitude": "14.65878210"
    },
    {
        "id": 216,
        "name": "Cuanza Sul",
        "countryId": 7,
        "countryCode": "AO",
        "stateId": "CUS",
        "latitude": "-10.59519100",
        "longitude": "15.40680790"
    },
    {
        "id": 215,
        "name": "Cunene Province",
        "countryId": 7,
        "countryCode": "AO",
        "stateId": "CNN",
        "latitude": "-16.28022210",
        "longitude": "16.15809370"
    },
    {
        "id": 213,
        "name": "Huambo Province",
        "countryId": 7,
        "countryCode": "AO",
        "stateId": "HUA",
        "latitude": "-12.52682210",
        "longitude": "15.59433880"
    },
    {
        "id": 225,
        "name": "Huíla Province",
        "countryId": 7,
        "countryCode": "AO",
        "stateId": "HUI",
        "latitude": "-14.92805530",
        "longitude": "14.65878210"
    },
    {
        "id": 222,
        "name": "Luanda Province",
        "countryId": 7,
        "countryCode": "AO",
        "stateId": "LUA",
        "latitude": "-9.03508800",
        "longitude": "13.26634790"
    },
    {
        "id": 223,
        "name": "Lunda Norte Province",
        "countryId": 7,
        "countryCode": "AO",
        "stateId": "LNO",
        "latitude": "-8.35250220",
        "longitude": "19.18800470"
    },
    {
        "id": 220,
        "name": "Lunda Sul Province",
        "countryId": 7,
        "countryCode": "AO",
        "stateId": "LSU",
        "latitude": "-10.28665780",
        "longitude": "20.71224650"
    },
    {
        "id": 227,
        "name": "Malanje Province",
        "countryId": 7,
        "countryCode": "AO",
        "stateId": "MAL",
        "latitude": "-9.82511830",
        "longitude": "16.91225100"
    },
    {
        "id": 219,
        "name": "Moxico Province",
        "countryId": 7,
        "countryCode": "AO",
        "stateId": "MOX",
        "latitude": "-13.42935790",
        "longitude": "20.33088140"
    },
    {
        "id": 224,
        "name": "Uíge Province",
        "countryId": 7,
        "countryCode": "AO",
        "stateId": "UIG",
        "latitude": "-7.17367320",
        "longitude": "15.40680790"
    },
    {
        "id": 214,
        "name": "Zaire Province",
        "countryId": 7,
        "countryCode": "AO",
        "stateId": "ZAI",
        "latitude": "-6.57334580",
        "longitude": "13.17403480"
    },
    {
        "id": 3708,
        "name": "Barbuda",
        "countryId": 10,
        "countryCode": "AG",
        "stateId": "10",
        "latitude": "17.62662420",
        "longitude": "-61.77130280"
    },
    {
        "id": 3703,
        "name": "Redonda",
        "countryId": 10,
        "countryCode": "AG",
        "stateId": "11",
        "latitude": "16.93841600",
        "longitude": "-62.34551480"
    },
    {
        "id": 3709,
        "name": "Saint George Parish",
        "countryId": 10,
        "countryCode": "AG",
        "stateId": "03",
        "latitude": null,
        "longitude": null
    },
    {
        "id": 3706,
        "name": "Saint John Parish",
        "countryId": 10,
        "countryCode": "AG",
        "stateId": "04",
        "latitude": null,
        "longitude": null
    },
    {
        "id": 3707,
        "name": "Saint Mary Parish",
        "countryId": 10,
        "countryCode": "AG",
        "stateId": "05",
        "latitude": null,
        "longitude": null
    },
    {
        "id": 3705,
        "name": "Saint Paul Parish",
        "countryId": 10,
        "countryCode": "AG",
        "stateId": "06",
        "latitude": null,
        "longitude": null
    },
    {
        "id": 3704,
        "name": "Saint Peter Parish",
        "countryId": 10,
        "countryCode": "AG",
        "stateId": "07",
        "latitude": null,
        "longitude": null
    },
    {
        "id": 3710,
        "name": "Saint Philip Parish",
        "countryId": 10,
        "countryCode": "AG",
        "stateId": "08",
        "latitude": "40.43682580",
        "longitude": "-80.06855320"
    },
    {
        "id": 4880,
        "name": "Autonomous City Of Buenos Aires",
        "countryId": 11,
        "countryCode": "AR",
        "stateId": "C",
        "latitude": "-34.60368440",
        "longitude": "-58.38155910"
    },
    {
        "id": 3656,
        "name": "Buenos Aires Province",
        "countryId": 11,
        "countryCode": "AR",
        "stateId": "B",
        "latitude": "-37.20172850",
        "longitude": "-59.84106970"
    },
    {
        "id": 3647,
        "name": "Catamarca Province",
        "countryId": 11,
        "countryCode": "AR",
        "stateId": "K",
        "latitude": "-28.47158770",
        "longitude": "-65.78772090"
    },
    {
        "id": 3640,
        "name": "Chaco Province",
        "countryId": 11,
        "countryCode": "AR",
        "stateId": "H",
        "latitude": "-27.42571750",
        "longitude": "-59.02437840"
    },
    {
        "id": 3651,
        "name": "Chubut Province",
        "countryId": 11,
        "countryCode": "AR",
        "stateId": "U",
        "latitude": "-43.29342460",
        "longitude": "-65.11148180"
    },
    {
        "id": 3642,
        "name": "Córdoba Province",
        "countryId": 11,
        "countryCode": "AR",
        "stateId": "X",
        "latitude": null,
        "longitude": null
    },
    {
        "id": 3638,
        "name": "Corrientes",
        "countryId": 11,
        "countryCode": "AR",
        "stateId": "W",
        "latitude": "-27.46921310",
        "longitude": "-58.83063490"
    },
    {
        "id": 3654,
        "name": "Entre Ríos Province",
        "countryId": 11,
        "countryCode": "AR",
        "stateId": "E",
        "latitude": "-31.77466540",
        "longitude": "-60.49564610"
    },
    {
        "id": 3652,
        "name": "Formosa Province",
        "countryId": 11,
        "countryCode": "AR",
        "stateId": "P",
        "latitude": "-26.18948040",
        "longitude": "-58.22428060"
    },
    {
        "id": 3645,
        "name": "Jujuy Province",
        "countryId": 11,
        "countryCode": "AR",
        "stateId": "Y",
        "latitude": "-24.18433970",
        "longitude": "-65.30217700"
    },
    {
        "id": 3655,
        "name": "La Pampa",
        "countryId": 11,
        "countryCode": "AR",
        "stateId": "L",
        "latitude": "-36.61475730",
        "longitude": "-64.28392090"
    },
    {
        "id": 3653,
        "name": "La Rioja Province",
        "countryId": 11,
        "countryCode": "AR",
        "stateId": "F",
        "latitude": "-29.41937930",
        "longitude": "-66.85599320"
    },
    {
        "id": 3646,
        "name": "Mendoza",
        "countryId": 11,
        "countryCode": "AR",
        "stateId": "M",
        "latitude": "-32.88945870",
        "longitude": "-68.84583860"
    },
    {
        "id": 3644,
        "name": "Misiones Province",
        "countryId": 11,
        "countryCode": "AR",
        "stateId": "N",
        "latitude": "-27.42692550",
        "longitude": "-55.94670760"
    },
    {
        "id": 3648,
        "name": "Neuquén Province",
        "countryId": 11,
        "countryCode": "AR",
        "stateId": "Q",
        "latitude": "-38.94587000",
        "longitude": "-68.07309250"
    },
    {
        "id": 3639,
        "name": "Río Negro Province",
        "countryId": 11,
        "countryCode": "AR",
        "stateId": "R",
        "latitude": "-40.82614340",
        "longitude": "-63.02663390"
    },
    {
        "id": 3643,
        "name": "Salta Province",
        "countryId": 11,
        "countryCode": "AR",
        "stateId": "A",
        "latitude": "-24.79976880",
        "longitude": "-65.41503670"
    },
    {
        "id": 3634,
        "name": "San Juan Province",
        "countryId": 11,
        "countryCode": "AR",
        "stateId": "J",
        "latitude": null,
        "longitude": null
    },
    {
        "id": 3636,
        "name": "San Luis Province",
        "countryId": 11,
        "countryCode": "AR",
        "stateId": "D",
        "latitude": "-33.29620420",
        "longitude": "-66.32949480"
    },
    {
        "id": 3649,
        "name": "Santa Cruz Province",
        "countryId": 11,
        "countryCode": "AR",
        "stateId": "Z",
        "latitude": "-51.63528210",
        "longitude": "-69.24743530"
    },
    {
        "id": 3641,
        "name": "Santa Fe Province",
        "countryId": 11,
        "countryCode": "AR",
        "stateId": "S",
        "latitude": "-31.58551090",
        "longitude": "-60.72380160"
    },
    {
        "id": 3635,
        "name": "Santiago del Estero Province",
        "countryId": 11,
        "countryCode": "AR",
        "stateId": "G",
        "latitude": "-27.78335740",
        "longitude": "-64.26416700"
    },
    {
        "id": 3650,
        "name": "Tierra del Fuego Province",
        "countryId": 11,
        "countryCode": "AR",
        "stateId": "V",
        "latitude": "-54.80539980",
        "longitude": "-68.32420610"
    },
    {
        "id": 3637,
        "name": "Tucumán Province",
        "countryId": 11,
        "countryCode": "AR",
        "stateId": "T",
        "latitude": "-26.82211270",
        "longitude": "-65.21929030"
    },
    {
        "id": 2023,
        "name": "Aragatsotn Region",
        "countryId": 12,
        "countryCode": "AM",
        "stateId": "AG",
        "latitude": "40.33473010",
        "longitude": "44.37482960"
    },
    {
        "id": 2024,
        "name": "Ararat Province",
        "countryId": 12,
        "countryCode": "AM",
        "stateId": "AR",
        "latitude": "39.91394150",
        "longitude": "44.72000040"
    },
    {
        "id": 2026,
        "name": "Armavir Region",
        "countryId": 12,
        "countryCode": "AM",
        "stateId": "AV",
        "latitude": "40.15546310",
        "longitude": "44.03724460"
    },
    {
        "id": 2028,
        "name": "Gegharkunik Province",
        "countryId": 12,
        "countryCode": "AM",
        "stateId": "GR",
        "latitude": "40.35264260",
        "longitude": "45.12604140"
    },
    {
        "id": 2033,
        "name": "Kotayk Region",
        "countryId": 12,
        "countryCode": "AM",
        "stateId": "KT",
        "latitude": "40.54102140",
        "longitude": "44.76901480"
    },
    {
        "id": 2029,
        "name": "Lori Region",
        "countryId": 12,
        "countryCode": "AM",
        "stateId": "LO",
        "latitude": "40.96984520",
        "longitude": "44.49001380"
    },
    {
        "id": 2031,
        "name": "Shirak Region",
        "countryId": 12,
        "countryCode": "AM",
        "stateId": "SH",
        "latitude": "40.96308140",
        "longitude": "43.81024610"
    },
    {
        "id": 2027,
        "name": "Syunik Province",
        "countryId": 12,
        "countryCode": "AM",
        "stateId": "SU",
        "latitude": "39.51331120",
        "longitude": "46.33932340"
    },
    {
        "id": 2032,
        "name": "Tavush Region",
        "countryId": 12,
        "countryCode": "AM",
        "stateId": "TV",
        "latitude": "40.88662960",
        "longitude": "45.33934900"
    },
    {
        "id": 2025,
        "name": "Vayots Dzor Region",
        "countryId": 12,
        "countryCode": "AM",
        "stateId": "VD",
        "latitude": "39.76419960",
        "longitude": "45.33375280"
    },
    {
        "id": 2030,
        "name": "Yerevan",
        "countryId": 12,
        "countryCode": "AM",
        "stateId": "ER",
        "latitude": "40.18720230",
        "longitude": "44.51520900"
    },
    {
        "id": 3907,
        "name": "Australian Capital Territory",
        "countryId": 14,
        "countryCode": "AU",
        "stateId": "ACT",
        "latitude": "-35.47346790",
        "longitude": "149.01236790"
    },
    {
        "id": 3909,
        "name": "New South Wales",
        "countryId": 14,
        "countryCode": "AU",
        "stateId": "NSW",
        "latitude": "-31.25321830",
        "longitude": "146.92109900"
    },
    {
        "id": 3910,
        "name": "Northern Territory",
        "countryId": 14,
        "countryCode": "AU",
        "stateId": "NT",
        "latitude": "-19.49141080",
        "longitude": "132.55096030"
    },
    {
        "id": 3905,
        "name": "Queensland",
        "countryId": 14,
        "countryCode": "AU",
        "stateId": "QLD",
        "latitude": "-20.91757380",
        "longitude": "142.70279560"
    },
    {
        "id": 3904,
        "name": "South Australia",
        "countryId": 14,
        "countryCode": "AU",
        "stateId": "SA",
        "latitude": "-30.00023150",
        "longitude": "136.20915470"
    },
    {
        "id": 3908,
        "name": "Tasmania",
        "countryId": 14,
        "countryCode": "AU",
        "stateId": "TAS",
        "latitude": "-41.45451960",
        "longitude": "145.97066470"
    },
    {
        "id": 3903,
        "name": "Victoria",
        "countryId": 14,
        "countryCode": "AU",
        "stateId": "VIC",
        "latitude": null,
        "longitude": null
    },
    {
        "id": 3906,
        "name": "Western Australia",
        "countryId": 14,
        "countryCode": "AU",
        "stateId": "WA",
        "latitude": "-27.67281680",
        "longitude": "121.62830980"
    },
    {
        "id": 2062,
        "name": "Burgenland",
        "countryId": 15,
        "countryCode": "AT",
        "stateId": "1",
        "latitude": "47.15371650",
        "longitude": "16.26887970"
    },
    {
        "id": 2057,
        "name": "Carinthia",
        "countryId": 15,
        "countryCode": "AT",
        "stateId": "2",
        "latitude": "46.72220300",
        "longitude": "14.18058820"
    },
    {
        "id": 2065,
        "name": "Lower Austria",
        "countryId": 15,
        "countryCode": "AT",
        "stateId": "3",
        "latitude": "48.10807700",
        "longitude": "15.80495580"
    },
    {
        "id": 2061,
        "name": "Salzburg",
        "countryId": 15,
        "countryCode": "AT",
        "stateId": "5",
        "latitude": "47.80949000",
        "longitude": "13.05501000"
    },
    {
        "id": 2059,
        "name": "Styria",
        "countryId": 15,
        "countryCode": "AT",
        "stateId": "6",
        "latitude": "47.35934420",
        "longitude": "14.46998270"
    },
    {
        "id": 2064,
        "name": "Tyrol",
        "countryId": 15,
        "countryCode": "AT",
        "stateId": "7",
        "latitude": "47.25374140",
        "longitude": "11.60148700"
    },
    {
        "id": 2058,
        "name": "Upper Austria",
        "countryId": 15,
        "countryCode": "AT",
        "stateId": "4",
        "latitude": "48.02585400",
        "longitude": "13.97236650"
    },
    {
        "id": 2060,
        "name": "Vienna",
        "countryId": 15,
        "countryCode": "AT",
        "stateId": "9",
        "latitude": "48.20817430",
        "longitude": "16.37381890"
    },
    {
        "id": 2063,
        "name": "Vorarlberg",
        "countryId": 15,
        "countryCode": "AT",
        "stateId": "8",
        "latitude": "47.24974270",
        "longitude": "9.97973730"
    },
    {
        "id": 540,
        "name": "Absheron District",
        "countryId": 16,
        "countryCode": "AZ",
        "stateId": "ABS",
        "latitude": "40.36296930",
        "longitude": "49.27368150"
    },
    {
        "id": 559,
        "name": "Agdam District",
        "countryId": 16,
        "countryCode": "AZ",
        "stateId": "AGM",
        "latitude": "39.99318530",
        "longitude": "46.99495620"
    },
    {
        "id": 553,
        "name": "Agdash District",
        "countryId": 16,
        "countryCode": "AZ",
        "stateId": "AGS",
        "latitude": "40.63354270",
        "longitude": "47.46743100"
    },
    {
        "id": 577,
        "name": "Aghjabadi District",
        "countryId": 16,
        "countryCode": "AZ",
        "stateId": "AGC",
        "latitude": "28.78918410",
        "longitude": "77.51607880"
    },
    {
        "id": 543,
        "name": "Agstafa District",
        "countryId": 16,
        "countryCode": "AZ",
        "stateId": "AGA",
        "latitude": "41.26559330",
        "longitude": "45.51342910"
    },
    {
        "id": 547,
        "name": "Agsu District",
        "countryId": 16,
        "countryCode": "AZ",
        "stateId": "AGU",
        "latitude": "40.52833390",
        "longitude": "48.36508350"
    },
    {
        "id": 528,
        "name": "Astara District",
        "countryId": 16,
        "countryCode": "AZ",
        "stateId": "AST",
        "latitude": "38.49378450",
        "longitude": "48.69443650"
    },
    {
        "id": 575,
        "name": "Babek District",
        "countryId": 16,
        "countryCode": "AZ",
        "stateId": "BAB",
        "latitude": "39.15076130",
        "longitude": "45.44853680"
    },
    {
        "id": 552,
        "name": "Baku",
        "countryId": 16,
        "countryCode": "AZ",
        "stateId": "BA",
        "latitude": "40.40926170",
        "longitude": "49.86709240"
    },
    {
        "id": 560,
        "name": "Balakan District",
        "countryId": 16,
        "countryCode": "AZ",
        "stateId": "BAL",
        "latitude": "41.70375090",
        "longitude": "46.40442130"
    },
    {
        "id": 569,
        "name": "Barda District",
        "countryId": 16,
        "countryCode": "AZ",
        "stateId": "BAR",
        "latitude": "40.37065550",
        "longitude": "47.13789090"
    },
    {
        "id": 554,
        "name": "Beylagan District",
        "countryId": 16,
        "countryCode": "AZ",
        "stateId": "BEY",
        "latitude": "39.77230730",
        "longitude": "47.61541660"
    },
    {
        "id": 532,
        "name": "Bilasuvar District",
        "countryId": 16,
        "countryCode": "AZ",
        "stateId": "BIL",
        "latitude": "39.45988330",
        "longitude": "48.55098130"
    },
    {
        "id": 561,
        "name": "Dashkasan District",
        "countryId": 16,
        "countryCode": "AZ",
        "stateId": "DAS",
        "latitude": "40.52022570",
        "longitude": "46.07793040"
    },
    {
        "id": 527,
        "name": "Fizuli District",
        "countryId": 16,
        "countryCode": "AZ",
        "stateId": "FUZ",
        "latitude": "39.53786050",
        "longitude": "47.30338770"
    },
    {
        "id": 585,
        "name": "Ganja",
        "countryId": 16,
        "countryCode": "AZ",
        "stateId": "GA",
        "latitude": "36.36873380",
        "longitude": "-95.99857670"
    },
    {
        "id": 589,
        "name": "Gədəbəy",
        "countryId": 16,
        "countryCode": "AZ",
        "stateId": "GAD",
        "latitude": "40.56996390",
        "longitude": "45.81068830"
    },
    {
        "id": 573,
        "name": "Gobustan District",
        "countryId": 16,
        "countryCode": "AZ",
        "stateId": "QOB",
        "latitude": "40.53261040",
        "longitude": "48.92737500"
    },
    {
        "id": 551,
        "name": "Goranboy District",
        "countryId": 16,
        "countryCode": "AZ",
        "stateId": "GOR",
        "latitude": "40.53805060",
        "longitude": "46.59908910"
    },
    {
        "id": 531,
        "name": "Goychay",
        "countryId": 16,
        "countryCode": "AZ",
        "stateId": "GOY",
        "latitude": "40.62361680",
        "longitude": "47.74030340"
    },
    {
        "id": 574,
        "name": "Goygol District",
        "countryId": 16,
        "countryCode": "AZ",
        "stateId": "GYG",
        "latitude": "40.55953780",
        "longitude": "46.33149530"
    },
    {
        "id": 571,
        "name": "Hajigabul District",
        "countryId": 16,
        "countryCode": "AZ",
        "stateId": "HAC",
        "latitude": "40.03937700",
        "longitude": "48.92025330"
    },
    {
        "id": 544,
        "name": "Imishli District",
        "countryId": 16,
        "countryCode": "AZ",
        "stateId": "IMI",
        "latitude": "39.86946860",
        "longitude": "48.06652180"
    },
    {
        "id": 564,
        "name": "Ismailli District",
        "countryId": 16,
        "countryCode": "AZ",
        "stateId": "ISM",
        "latitude": "40.74299360",
        "longitude": "48.21255560"
    },
    {
        "id": 570,
        "name": "Jabrayil District",
        "countryId": 16,
        "countryCode": "AZ",
        "stateId": "CAB",
        "latitude": "39.26455440",
        "longitude": "46.96215620"
    },
    {
        "id": 578,
        "name": "Jalilabad District",
        "countryId": 16,
        "countryCode": "AZ",
        "stateId": "CAL",
        "latitude": "39.20516320",
        "longitude": "48.51006040"
    },
    {
        "id": 572,
        "name": "Julfa District",
        "countryId": 16,
        "countryCode": "AZ",
        "stateId": "CUL",
        "latitude": "38.96049830",
        "longitude": "45.62929390"
    },
    {
        "id": 525,
        "name": "Kalbajar District",
        "countryId": 16,
        "countryCode": "AZ",
        "stateId": "KAL",
        "latitude": "40.10243290",
        "longitude": "46.03648720"
    },
    {
        "id": 567,
        "name": "Kangarli District",
        "countryId": 16,
        "countryCode": "AZ",
        "stateId": "KAN",
        "latitude": "39.38719400",
        "longitude": "45.16398520"
    },
    {
        "id": 590,
        "name": "Khachmaz District",
        "countryId": 16,
        "countryCode": "AZ",
        "stateId": "XAC",
        "latitude": "41.45911680",
        "longitude": "48.80206260"
    },
    {
        "id": 537,
        "name": "Khizi District",
        "countryId": 16,
        "countryCode": "AZ",
        "stateId": "XIZ",
        "latitude": "40.91094890",
        "longitude": "49.07292640"
    },
    {
        "id": 524,
        "name": "Khojali District",
        "countryId": 16,
        "countryCode": "AZ",
        "stateId": "XCI",
        "latitude": "39.91325530",
        "longitude": "46.79430500"
    },
    {
        "id": 549,
        "name": "Kurdamir District",
        "countryId": 16,
        "countryCode": "AZ",
        "stateId": "KUR",
        "latitude": "40.36986510",
        "longitude": "48.16446260"
    },
    {
        "id": 541,
        "name": "Lachin District",
        "countryId": 16,
        "countryCode": "AZ",
        "stateId": "LAC",
        "latitude": "39.63834140",
        "longitude": "46.54608530"
    },
    {
        "id": 587,
        "name": "Lankaran",
        "countryId": 16,
        "countryCode": "AZ",
        "stateId": "LAN",
        "latitude": "38.75286690",
        "longitude": "48.84750150"
    },
    {
        "id": 558,
        "name": "Lankaran District",
        "countryId": 16,
        "countryCode": "AZ",
        "stateId": "LA",
        "latitude": "38.75286690",
        "longitude": "48.84750150"
    },
    {
        "id": 546,
        "name": "Lerik District",
        "countryId": 16,
        "countryCode": "AZ",
        "stateId": "LER",
        "latitude": "38.77361920",
        "longitude": "48.41514830"
    },
    {
        "id": 568,
        "name": "Martuni",
        "countryId": 16,
        "countryCode": "AZ",
        "stateId": "XVD",
        "latitude": "39.79146930",
        "longitude": "47.11008140"
    },
    {
        "id": 555,
        "name": "Masally District",
        "countryId": 16,
        "countryCode": "AZ",
        "stateId": "MAS",
        "latitude": "39.03407220",
        "longitude": "48.65893540"
    },
    {
        "id": 580,
        "name": "Mingachevir",
        "countryId": 16,
        "countryCode": "AZ",
        "stateId": "MI",
        "latitude": "40.77025630",
        "longitude": "47.04960150"
    },
    {
        "id": 562,
        "name": "Nakhchivan Autonomous Republic",
        "countryId": 16,
        "countryCode": "AZ",
        "stateId": "NX",
        "latitude": "39.32568140",
        "longitude": "45.49126480"
    },
    {
        "id": 530,
        "name": "Neftchala District",
        "countryId": 16,
        "countryCode": "AZ",
        "stateId": "NEF",
        "latitude": "39.38810520",
        "longitude": "49.24137430"
    },
    {
        "id": 556,
        "name": "Oghuz District",
        "countryId": 16,
        "countryCode": "AZ",
        "stateId": "OGU",
        "latitude": "41.07279240",
        "longitude": "47.46506720"
    },
    {
        "id": 534,
        "name": "Ordubad District",
        "countryId": 16,
        "countryCode": "AZ",
        "stateId": "ORD",
        "latitude": "38.90216220",
        "longitude": "46.02376250"
    },
    {
        "id": 542,
        "name": "Qabala District",
        "countryId": 16,
        "countryCode": "AZ",
        "stateId": "QAB",
        "latitude": "40.92539250",
        "longitude": "47.80161060"
    },
    {
        "id": 526,
        "name": "Qakh District",
        "countryId": 16,
        "countryCode": "AZ",
        "stateId": "QAX",
        "latitude": "41.42068270",
        "longitude": "46.93201840"
    },
    {
        "id": 521,
        "name": "Qazakh District",
        "countryId": 16,
        "countryCode": "AZ",
        "stateId": "QAZ",
        "latitude": "41.09710740",
        "longitude": "45.35163310"
    },
    {
        "id": 563,
        "name": "Quba District",
        "countryId": 16,
        "countryCode": "AZ",
        "stateId": "QBA",
        "latitude": "41.15642420",
        "longitude": "48.41350210"
    },
    {
        "id": 548,
        "name": "Qubadli District",
        "countryId": 16,
        "countryCode": "AZ",
        "stateId": "QBI",
        "latitude": "39.27139960",
        "longitude": "46.63543120"
    },
    {
        "id": 588,
        "name": "Qusar District",
        "countryId": 16,
        "countryCode": "AZ",
        "stateId": "QUS",
        "latitude": "41.42668860",
        "longitude": "48.43455770"
    },
    {
        "id": 557,
        "name": "Saatly District",
        "countryId": 16,
        "countryCode": "AZ",
        "stateId": "SAT",
        "latitude": "39.90955030",
        "longitude": "48.35951220"
    },
    {
        "id": 565,
        "name": "Sabirabad District",
        "countryId": 16,
        "countryCode": "AZ",
        "stateId": "SAB",
        "latitude": "39.98706630",
        "longitude": "48.46925450"
    },
    {
        "id": 522,
        "name": "Sadarak District",
        "countryId": 16,
        "countryCode": "AZ",
        "stateId": "SAD",
        "latitude": "39.71051140",
        "longitude": "44.88642770"
    },
    {
        "id": 545,
        "name": "Salyan District",
        "countryId": 16,
        "countryCode": "AZ",
        "stateId": "SAL",
        "latitude": "28.35248110",
        "longitude": "82.12784000"
    },
    {
        "id": 536,
        "name": "Samukh District",
        "countryId": 16,
        "countryCode": "AZ",
        "stateId": "SMX",
        "latitude": "40.76046310",
        "longitude": "46.40631810"
    },
    {
        "id": 591,
        "name": "Shabran District",
        "countryId": 16,
        "countryCode": "AZ",
        "stateId": "SBN",
        "latitude": "41.22283760",
        "longitude": "48.84573040"
    },
    {
        "id": 579,
        "name": "Shahbuz District",
        "countryId": 16,
        "countryCode": "AZ",
        "stateId": "SAH",
        "latitude": "39.44521030",
        "longitude": "45.65680090"
    },
    {
        "id": 518,
        "name": "Shaki",
        "countryId": 16,
        "countryCode": "AZ",
        "stateId": "SA",
        "latitude": "41.19747530",
        "longitude": "47.15712410"
    },
    {
        "id": 586,
        "name": "Shaki District",
        "countryId": 16,
        "countryCode": "AZ",
        "stateId": "SAK",
        "latitude": "41.11346620",
        "longitude": "47.13169270"
    },
    {
        "id": 529,
        "name": "Shamakhi District",
        "countryId": 16,
        "countryCode": "AZ",
        "stateId": "SMI",
        "latitude": "40.63187310",
        "longitude": "48.63638010"
    },
    {
        "id": 583,
        "name": "Shamkir District",
        "countryId": 16,
        "countryCode": "AZ",
        "stateId": "SKR",
        "latitude": "40.82881440",
        "longitude": "46.01668790"
    },
    {
        "id": 535,
        "name": "Sharur District",
        "countryId": 16,
        "countryCode": "AZ",
        "stateId": "SAR",
        "latitude": "39.55363320",
        "longitude": "44.98456800"
    },
    {
        "id": 520,
        "name": "Shirvan",
        "countryId": 16,
        "countryCode": "AZ",
        "stateId": "SR",
        "latitude": "39.94697070",
        "longitude": "48.92239190"
    },
    {
        "id": 592,
        "name": "Shusha District",
        "countryId": 16,
        "countryCode": "AZ",
        "stateId": "SUS",
        "latitude": "39.75374380",
        "longitude": "46.74647550"
    },
    {
        "id": 584,
        "name": "Siazan District",
        "countryId": 16,
        "countryCode": "AZ",
        "stateId": "SIY",
        "latitude": "41.07838330",
        "longitude": "49.11184770"
    },
    {
        "id": 582,
        "name": "Sumqayit",
        "countryId": 16,
        "countryCode": "AZ",
        "stateId": "SM",
        "latitude": "40.58547650",
        "longitude": "49.63174110"
    },
    {
        "id": 519,
        "name": "Tartar District",
        "countryId": 16,
        "countryCode": "AZ",
        "stateId": "TAR",
        "latitude": "40.34438750",
        "longitude": "46.93765190"
    },
    {
        "id": 533,
        "name": "Tovuz District",
        "countryId": 16,
        "countryCode": "AZ",
        "stateId": "TOV",
        "latitude": "40.99545230",
        "longitude": "45.61659070"
    },
    {
        "id": 539,
        "name": "Ujar District",
        "countryId": 16,
        "countryCode": "AZ",
        "stateId": "UCA",
        "latitude": "40.50675250",
        "longitude": "47.64896410"
    },
    {
        "id": 550,
        "name": "Yardymli District",
        "countryId": 16,
        "countryCode": "AZ",
        "stateId": "YAR",
        "latitude": "38.90589170",
        "longitude": "48.24961270"
    },
    {
        "id": 538,
        "name": "Yevlakh",
        "countryId": 16,
        "countryCode": "AZ",
        "stateId": "YE",
        "latitude": "40.61966380",
        "longitude": "47.15003240"
    },
    {
        "id": 523,
        "name": "Yevlakh District",
        "countryId": 16,
        "countryCode": "AZ",
        "stateId": "YEV",
        "latitude": "40.61966380",
        "longitude": "47.15003240"
    },
    {
        "id": 581,
        "name": "Zangilan District",
        "countryId": 16,
        "countryCode": "AZ",
        "stateId": "ZAN",
        "latitude": "39.08568990",
        "longitude": "46.65247280"
    },
    {
        "id": 566,
        "name": "Zaqatala District",
        "countryId": 16,
        "countryCode": "AZ",
        "stateId": "ZAQ",
        "latitude": "41.59068890",
        "longitude": "46.72403730"
    },
    {
        "id": 576,
        "name": "Zardab District",
        "countryId": 16,
        "countryCode": "AZ",
        "stateId": "ZAR",
        "latitude": "40.21481140",
        "longitude": "47.71494400"
    },
    {
        "id": 3601,
        "name": "Acklins",
        "countryId": 17,
        "countryCode": "BS",
        "stateId": "AK",
        "latitude": "22.36577080",
        "longitude": "-74.05351260"
    },
    {
        "id": 3628,
        "name": "Acklins and Crooked Islands",
        "countryId": 17,
        "countryCode": "BS",
        "stateId": "AC",
        "latitude": "22.36577080",
        "longitude": "-74.05351260"
    },
    {
        "id": 3593,
        "name": "Berry Islands",
        "countryId": 17,
        "countryCode": "BS",
        "stateId": "BY",
        "latitude": "25.62500420",
        "longitude": "-77.82522030"
    },
    {
        "id": 3629,
        "name": "Bimini",
        "countryId": 17,
        "countryCode": "BS",
        "stateId": "BI",
        "latitude": "24.64153250",
        "longitude": "-79.85062260"
    },
    {
        "id": 3605,
        "name": "Black Point",
        "countryId": 17,
        "countryCode": "BS",
        "stateId": "BP",
        "latitude": "41.39510240",
        "longitude": "-71.46505560"
    },
    {
        "id": 3611,
        "name": "Cat Island",
        "countryId": 17,
        "countryCode": "BS",
        "stateId": "CI",
        "latitude": "30.22801360",
        "longitude": "-89.10149330"
    },
    {
        "id": 3603,
        "name": "Central Abaco",
        "countryId": 17,
        "countryCode": "BS",
        "stateId": "CO",
        "latitude": "26.35550290",
        "longitude": "-77.14851630"
    },
    {
        "id": 3631,
        "name": "Central Andros",
        "countryId": 17,
        "countryCode": "BS",
        "stateId": "CS",
        "latitude": "24.46884820",
        "longitude": "-77.97386500"
    },
    {
        "id": 3596,
        "name": "Central Eleuthera",
        "countryId": 17,
        "countryCode": "BS",
        "stateId": "CE",
        "latitude": "25.13620370",
        "longitude": "-76.14359150"
    },
    {
        "id": 3621,
        "name": "Crooked Island",
        "countryId": 17,
        "countryCode": "BS",
        "stateId": "CK",
        "latitude": "22.63909820",
        "longitude": "-74.00650900"
    },
    {
        "id": 3614,
        "name": "East Grand Bahama",
        "countryId": 17,
        "countryCode": "BS",
        "stateId": "EG",
        "latitude": "26.65828230",
        "longitude": "-78.22482910"
    },
    {
        "id": 3612,
        "name": "Exuma",
        "countryId": 17,
        "countryCode": "BS",
        "stateId": "EX",
        "latitude": "23.61925980",
        "longitude": "-75.96954650"
    },
    {
        "id": 3626,
        "name": "Freeport",
        "countryId": 17,
        "countryCode": "BS",
        "stateId": "FP",
        "latitude": "42.29668610",
        "longitude": "-89.62122710"
    },
    {
        "id": 3619,
        "name": "Fresh Creek",
        "countryId": 17,
        "countryCode": "BS",
        "stateId": "FC",
        "latitude": "40.65437560",
        "longitude": "-73.89479390"
    },
    {
        "id": 3597,
        "name": "Governor's Harbour",
        "countryId": 17,
        "countryCode": "BS",
        "stateId": "GH",
        "latitude": "25.19480960",
        "longitude": "-76.24396220"
    },
    {
        "id": 3632,
        "name": "Grand Cay",
        "countryId": 17,
        "countryCode": "BS",
        "stateId": "GC",
        "latitude": "27.21626150",
        "longitude": "-78.32305590"
    },
    {
        "id": 3595,
        "name": "Green Turtle Cay",
        "countryId": 17,
        "countryCode": "BS",
        "stateId": "GT",
        "latitude": "26.77471070",
        "longitude": "-77.32957080"
    },
    {
        "id": 3613,
        "name": "Harbour Island",
        "countryId": 17,
        "countryCode": "BS",
        "stateId": "HI",
        "latitude": "25.50011000",
        "longitude": "-76.63405110"
    },
    {
        "id": 3598,
        "name": "High Rock",
        "countryId": 17,
        "countryCode": "BS",
        "stateId": "HR",
        "latitude": "46.68434150",
        "longitude": "-121.90174610"
    },
    {
        "id": 3624,
        "name": "Hope Town",
        "countryId": 17,
        "countryCode": "BS",
        "stateId": "HT",
        "latitude": "26.50095040",
        "longitude": "-76.99598720"
    },
    {
        "id": 3609,
        "name": "Inagua",
        "countryId": 17,
        "countryCode": "BS",
        "stateId": "IN",
        "latitude": "21.06560660",
        "longitude": "-73.32370800"
    },
    {
        "id": 3618,
        "name": "Kemps Bay",
        "countryId": 17,
        "countryCode": "BS",
        "stateId": "KB",
        "latitude": "24.02364000",
        "longitude": "-77.54534900"
    },
    {
        "id": 3610,
        "name": "Long Island",
        "countryId": 17,
        "countryCode": "BS",
        "stateId": "LI",
        "latitude": "40.78914200",
        "longitude": "-73.13496100"
    },
    {
        "id": 3625,
        "name": "Mangrove Cay",
        "countryId": 17,
        "countryCode": "BS",
        "stateId": "MC",
        "latitude": "24.14814250",
        "longitude": "-77.76809520"
    },
    {
        "id": 3604,
        "name": "Marsh Harbour",
        "countryId": 17,
        "countryCode": "BS",
        "stateId": "MH",
        "latitude": "26.52416530",
        "longitude": "-77.09098090"
    },
    {
        "id": 3633,
        "name": "Mayaguana District",
        "countryId": 17,
        "countryCode": "BS",
        "stateId": "MG",
        "latitude": "22.40177140",
        "longitude": "-73.06413960"
    },
    {
        "id": 4881,
        "name": "New Providence",
        "countryId": 17,
        "countryCode": "BS",
        "stateId": "NP",
        "latitude": "40.69843480",
        "longitude": "-74.40154050"
    },
    {
        "id": 3594,
        "name": "Nichollstown and Berry Islands",
        "countryId": 17,
        "countryCode": "BS",
        "stateId": "NB",
        "latitude": "25.72362340",
        "longitude": "-77.83101040"
    },
    {
        "id": 3616,
        "name": "North Abaco",
        "countryId": 17,
        "countryCode": "BS",
        "stateId": "NO",
        "latitude": "26.78716970",
        "longitude": "-77.43577390"
    },
    {
        "id": 3617,
        "name": "North Andros",
        "countryId": 17,
        "countryCode": "BS",
        "stateId": "NS",
        "latitude": "24.70638050",
        "longitude": "-78.01953870"
    },
    {
        "id": 3602,
        "name": "North Eleuthera",
        "countryId": 17,
        "countryCode": "BS",
        "stateId": "NE",
        "latitude": "25.46475170",
        "longitude": "-76.67592200"
    },
    {
        "id": 3615,
        "name": "Ragged Island",
        "countryId": 17,
        "countryCode": "BS",
        "stateId": "RI",
        "latitude": "41.59743100",
        "longitude": "-71.26020200"
    },
    {
        "id": 3623,
        "name": "Rock Sound",
        "countryId": 17,
        "countryCode": "BS",
        "stateId": "RS",
        "latitude": "39.01424430",
        "longitude": "-95.67089890"
    },
    {
        "id": 3600,
        "name": "Rum Cay District",
        "countryId": 17,
        "countryCode": "BS",
        "stateId": "RC",
        "latitude": "23.68546760",
        "longitude": "-74.83901620"
    },
    {
        "id": 3620,
        "name": "San Salvador and Rum Cay",
        "countryId": 17,
        "countryCode": "BS",
        "stateId": "SR",
        "latitude": "23.68546760",
        "longitude": "-74.83901620"
    },
    {
        "id": 3627,
        "name": "San Salvador Island",
        "countryId": 17,
        "countryCode": "BS",
        "stateId": "SS",
        "latitude": "24.07755460",
        "longitude": "-74.47600880"
    },
    {
        "id": 3606,
        "name": "Sandy Point",
        "countryId": 17,
        "countryCode": "BS",
        "stateId": "SP",
        "latitude": "39.01454640",
        "longitude": "-76.39989250"
    },
    {
        "id": 3608,
        "name": "South Abaco",
        "countryId": 17,
        "countryCode": "BS",
        "stateId": "SO",
        "latitude": "26.06405910",
        "longitude": "-77.26350380"
    },
    {
        "id": 3622,
        "name": "South Andros",
        "countryId": 17,
        "countryCode": "BS",
        "stateId": "SA",
        "latitude": "23.97135560",
        "longitude": "-77.60778650"
    },
    {
        "id": 3607,
        "name": "South Eleuthera",
        "countryId": 17,
        "countryCode": "BS",
        "stateId": "SE",
        "latitude": "24.77085620",
        "longitude": "-76.21314740"
    },
    {
        "id": 3630,
        "name": "Spanish Wells",
        "countryId": 17,
        "countryCode": "BS",
        "stateId": "SW",
        "latitude": "26.32505990",
        "longitude": "-81.79803280"
    },
    {
        "id": 3599,
        "name": "West Grand Bahama",
        "countryId": 17,
        "countryCode": "BS",
        "stateId": "WG",
        "latitude": "26.65944700",
        "longitude": "-78.52065000"
    },
    {
        "id": 1992,
        "name": "Capital Governorate",
        "countryId": 18,
        "countryCode": "BH",
        "stateId": "13",
        "latitude": null,
        "longitude": null
    },
    {
        "id": 1996,
        "name": "Central Governorate",
        "countryId": 18,
        "countryCode": "BH",
        "stateId": "16",
        "latitude": "26.14260930",
        "longitude": "50.56532940"
    },
    {
        "id": 1995,
        "name": "Muharraq Governorate",
        "countryId": 18,
        "countryCode": "BH",
        "stateId": "15",
        "latitude": "26.26856530",
        "longitude": "50.64825170"
    },
    {
        "id": 1994,
        "name": "Northern Governorate",
        "countryId": 18,
        "countryCode": "BH",
        "stateId": "17",
        "latitude": "26.15519140",
        "longitude": "50.48251730"
    },
    {
        "id": 1993,
        "name": "Southern Governorate",
        "countryId": 18,
        "countryCode": "BH",
        "stateId": "14",
        "latitude": "25.93810180",
        "longitude": "50.57568870"
    },
    {
        "id": 796,
        "name": "Bagerhat District",
        "countryId": 19,
        "countryCode": "BD",
        "stateId": "05",
        "latitude": "22.66024360",
        "longitude": "89.78954780"
    },
    {
        "id": 802,
        "name": "Bahadia",
        "countryId": 19,
        "countryCode": "BD",
        "stateId": "33",
        "latitude": "23.78987120",
        "longitude": "90.16714830"
    },
    {
        "id": 752,
        "name": "Bandarban District",
        "countryId": 19,
        "countryCode": "BD",
        "stateId": "01",
        "latitude": "21.83110020",
        "longitude": "92.36863210"
    },
    {
        "id": 784,
        "name": "Barguna District",
        "countryId": 19,
        "countryCode": "BD",
        "stateId": "02",
        "latitude": "22.09529150",
        "longitude": "90.11206960"
    },
    {
        "id": 818,
        "name": "Barisal District",
        "countryId": 19,
        "countryCode": "BD",
        "stateId": "06",
        "latitude": "22.70220980",
        "longitude": "90.36963160"
    },
    {
        "id": 807,
        "name": "Barisal Division",
        "countryId": 19,
        "countryCode": "BD",
        "stateId": "A",
        "latitude": "22.38111310",
        "longitude": "90.33718890"
    },
    {
        "id": 756,
        "name": "Bhola District",
        "countryId": 19,
        "countryCode": "BD",
        "stateId": "07",
        "latitude": "22.17853150",
        "longitude": "90.71010230"
    },
    {
        "id": 797,
        "name": "Bogra District",
        "countryId": 19,
        "countryCode": "BD",
        "stateId": "03",
        "latitude": "24.85104020",
        "longitude": "89.36972250"
    },
    {
        "id": 810,
        "name": "Brahmanbaria District",
        "countryId": 19,
        "countryCode": "BD",
        "stateId": "04",
        "latitude": "23.96081810",
        "longitude": "91.11150140"
    },
    {
        "id": 768,
        "name": "Chandpur District",
        "countryId": 19,
        "countryCode": "BD",
        "stateId": "09",
        "latitude": "23.25131480",
        "longitude": "90.85178460"
    },
    {
        "id": 761,
        "name": "Chapai Nawabganj District",
        "countryId": 19,
        "countryCode": "BD",
        "stateId": "45",
        "latitude": "24.74131110",
        "longitude": "88.29120690"
    },
    {
        "id": 785,
        "name": "Chittagong District",
        "countryId": 19,
        "countryCode": "BD",
        "stateId": "10",
        "latitude": "22.51501050",
        "longitude": "91.75388170"
    },
    {
        "id": 803,
        "name": "Chittagong Division",
        "countryId": 19,
        "countryCode": "BD",
        "stateId": "B",
        "latitude": "23.17931570",
        "longitude": "91.98815270"
    },
    {
        "id": 788,
        "name": "Chuadanga District",
        "countryId": 19,
        "countryCode": "BD",
        "stateId": "12",
        "latitude": "23.61605120",
        "longitude": "88.82630060"
    },
    {
        "id": 763,
        "name": "Comilla District",
        "countryId": 19,
        "countryCode": "BD",
        "stateId": "08",
        "latitude": "23.45756670",
        "longitude": "91.18089960"
    },
    {
        "id": 751,
        "name": "Cox's Bazar District",
        "countryId": 19,
        "countryCode": "BD",
        "stateId": "11",
        "latitude": "21.56406260",
        "longitude": "92.02821290"
    },
    {
        "id": 771,
        "name": "Dhaka District",
        "countryId": 19,
        "countryCode": "BD",
        "stateId": "13",
        "latitude": "23.81051400",
        "longitude": "90.33718890"
    },
    {
        "id": 760,
        "name": "Dhaka Division",
        "countryId": 19,
        "countryCode": "BD",
        "stateId": "C",
        "latitude": "23.95357420",
        "longitude": "90.14949880"
    },
    {
        "id": 783,
        "name": "Dinajpur District",
        "countryId": 19,
        "countryCode": "BD",
        "stateId": "14",
        "latitude": "25.62791230",
        "longitude": "88.63317580"
    },
    {
        "id": 762,
        "name": "Faridpur District",
        "countryId": 19,
        "countryCode": "BD",
        "stateId": "15",
        "latitude": "23.54239190",
        "longitude": "89.63089210"
    },
    {
        "id": 816,
        "name": "Feni District",
        "countryId": 19,
        "countryCode": "BD",
        "stateId": "16",
        "latitude": "22.94087840",
        "longitude": "91.40666460"
    },
    {
        "id": 795,
        "name": "Gaibandha District",
        "countryId": 19,
        "countryCode": "BD",
        "stateId": "19",
        "latitude": "25.32969280",
        "longitude": "89.54296520"
    },
    {
        "id": 798,
        "name": "Gazipur District",
        "countryId": 19,
        "countryCode": "BD",
        "stateId": "18",
        "latitude": "24.09581710",
        "longitude": "90.41251810"
    },
    {
        "id": 792,
        "name": "Gopalganj District",
        "countryId": 19,
        "countryCode": "BD",
        "stateId": "17",
        "latitude": "26.48315840",
        "longitude": "84.43655000"
    },
    {
        "id": 805,
        "name": "Habiganj District",
        "countryId": 19,
        "countryCode": "BD",
        "stateId": "20",
        "latitude": "24.47712360",
        "longitude": "91.45065650"
    },
    {
        "id": 808,
        "name": "Jamalpur District",
        "countryId": 19,
        "countryCode": "BD",
        "stateId": "21",
        "latitude": "25.08309260",
        "longitude": "89.78532180"
    },
    {
        "id": 757,
        "name": "Jessore District",
        "countryId": 19,
        "countryCode": "BD",
        "stateId": "22",
        "latitude": "23.16340140",
        "longitude": "89.21816640"
    },
    {
        "id": 778,
        "name": "Jhalokati District",
        "countryId": 19,
        "countryCode": "BD",
        "stateId": "25",
        "latitude": "22.57208000",
        "longitude": "90.18696440"
    },
    {
        "id": 789,
        "name": "Jhenaidah District",
        "countryId": 19,
        "countryCode": "BD",
        "stateId": "23",
        "latitude": "23.54498730",
        "longitude": "89.17260310"
    },
    {
        "id": 806,
        "name": "Joypurhat District",
        "countryId": 19,
        "countryCode": "BD",
        "stateId": "24",
        "latitude": "25.09473490",
        "longitude": "89.09449370"
    },
    {
        "id": 786,
        "name": "Khagrachari District",
        "countryId": 19,
        "countryCode": "BD",
        "stateId": "29",
        "latitude": "23.13217510",
        "longitude": "91.94902100"
    },
    {
        "id": 811,
        "name": "Khulna District",
        "countryId": 19,
        "countryCode": "BD",
        "stateId": "27",
        "latitude": "22.67377350",
        "longitude": "89.39665810"
    },
    {
        "id": 775,
        "name": "Khulna Division",
        "countryId": 19,
        "countryCode": "BD",
        "stateId": "D",
        "latitude": "22.80878160",
        "longitude": "89.24671910"
    },
    {
        "id": 779,
        "name": "Kishoreganj District",
        "countryId": 19,
        "countryCode": "BD",
        "stateId": "26",
        "latitude": "24.42604570",
        "longitude": "90.98206680"
    },
    {
        "id": 793,
        "name": "Kurigram District",
        "countryId": 19,
        "countryCode": "BD",
        "stateId": "28",
        "latitude": "25.80724140",
        "longitude": "89.62947460"
    },
    {
        "id": 774,
        "name": "Kushtia District",
        "countryId": 19,
        "countryCode": "BD",
        "stateId": "30",
        "latitude": "23.89069950",
        "longitude": "89.10993680"
    },
    {
        "id": 819,
        "name": "Lakshmipur District",
        "countryId": 19,
        "countryCode": "BD",
        "stateId": "31",
        "latitude": "22.94467440",
        "longitude": "90.82819070"
    },
    {
        "id": 780,
        "name": "Lalmonirhat District",
        "countryId": 19,
        "countryCode": "BD",
        "stateId": "32",
        "latitude": "25.99233980",
        "longitude": "89.28472510"
    },
    {
        "id": 817,
        "name": "Madaripur District",
        "countryId": 19,
        "countryCode": "BD",
        "stateId": "36",
        "latitude": "23.23933460",
        "longitude": "90.18696440"
    },
    {
        "id": 776,
        "name": "Meherpur District",
        "countryId": 19,
        "countryCode": "BD",
        "stateId": "39",
        "latitude": "23.80519910",
        "longitude": "88.67235780"
    },
    {
        "id": 794,
        "name": "Moulvibazar District",
        "countryId": 19,
        "countryCode": "BD",
        "stateId": "38",
        "latitude": "24.30953440",
        "longitude": "91.73149030"
    },
    {
        "id": 790,
        "name": "Munshiganj District",
        "countryId": 19,
        "countryCode": "BD",
        "stateId": "35",
        "latitude": "23.49809310",
        "longitude": "90.41266210"
    },
    {
        "id": 766,
        "name": "Mymensingh District",
        "countryId": 19,
        "countryCode": "BD",
        "stateId": "34",
        "latitude": "24.75385750",
        "longitude": "90.40729190"
    },
    {
        "id": 758,
        "name": "Mymensingh Division",
        "countryId": 19,
        "countryCode": "BD",
        "stateId": "H",
        "latitude": "24.71362000",
        "longitude": "90.45023680"
    },
    {
        "id": 814,
        "name": "Naogaon District",
        "countryId": 19,
        "countryCode": "BD",
        "stateId": "48",
        "latitude": "24.91315970",
        "longitude": "88.75309520"
    },
    {
        "id": 769,
        "name": "Narail District",
        "countryId": 19,
        "countryCode": "BD",
        "stateId": "43",
        "latitude": "23.11629290",
        "longitude": "89.58404040"
    },
    {
        "id": 770,
        "name": "Narayanganj District",
        "countryId": 19,
        "countryCode": "BD",
        "stateId": "40",
        "latitude": "23.71466010",
        "longitude": "90.56360900"
    },
    {
        "id": 787,
        "name": "Natore District",
        "countryId": 19,
        "countryCode": "BD",
        "stateId": "44",
        "latitude": "24.41024300",
        "longitude": "89.00761770"
    },
    {
        "id": 764,
        "name": "Netrokona District",
        "countryId": 19,
        "countryCode": "BD",
        "stateId": "41",
        "latitude": "24.81032840",
        "longitude": "90.86564150"
    },
    {
        "id": 772,
        "name": "Nilphamari District",
        "countryId": 19,
        "countryCode": "BD",
        "stateId": "46",
        "latitude": "25.84827980",
        "longitude": "88.94141340"
    },
    {
        "id": 815,
        "name": "Noakhali District",
        "countryId": 19,
        "countryCode": "BD",
        "stateId": "47",
        "latitude": "22.87237890",
        "longitude": "91.09731840"
    },
    {
        "id": 754,
        "name": "Pabna District",
        "countryId": 19,
        "countryCode": "BD",
        "stateId": "49",
        "latitude": "24.15850500",
        "longitude": "89.44807180"
    },
    {
        "id": 800,
        "name": "Panchagarh District",
        "countryId": 19,
        "countryCode": "BD",
        "stateId": "52",
        "latitude": "26.27087050",
        "longitude": "88.59517510"
    },
    {
        "id": 777,
        "name": "Patuakhali District",
        "countryId": 19,
        "countryCode": "BD",
        "stateId": "51",
        "latitude": "22.22486320",
        "longitude": "90.45475030"
    },
    {
        "id": 791,
        "name": "Pirojpur District",
        "countryId": 19,
        "countryCode": "BD",
        "stateId": "50",
        "latitude": "22.57907440",
        "longitude": "89.97592640"
    },
    {
        "id": 773,
        "name": "Rajbari District",
        "countryId": 19,
        "countryCode": "BD",
        "stateId": "53",
        "latitude": "23.71513400",
        "longitude": "89.58748190"
    },
    {
        "id": 813,
        "name": "Rajshahi District",
        "countryId": 19,
        "countryCode": "BD",
        "stateId": "54",
        "latitude": "24.37330870",
        "longitude": "88.60487160"
    },
    {
        "id": 753,
        "name": "Rajshahi Division",
        "countryId": 19,
        "countryCode": "BD",
        "stateId": "E",
        "latitude": "24.71057760",
        "longitude": "88.94138650"
    },
    {
        "id": 809,
        "name": "Rangamati Hill District",
        "countryId": 19,
        "countryCode": "BD",
        "stateId": "56",
        "latitude": "22.73241730",
        "longitude": "92.29851340"
    },
    {
        "id": 759,
        "name": "Rangpur District",
        "countryId": 19,
        "countryCode": "BD",
        "stateId": "55",
        "latitude": "25.74679250",
        "longitude": "89.25083350"
    },
    {
        "id": 750,
        "name": "Rangpur Division",
        "countryId": 19,
        "countryCode": "BD",
        "stateId": "F",
        "latitude": "25.84833880",
        "longitude": "88.94138650"
    },
    {
        "id": 799,
        "name": "Satkhira District",
        "countryId": 19,
        "countryCode": "BD",
        "stateId": "58",
        "latitude": "22.31548120",
        "longitude": "89.11145250"
    },
    {
        "id": 801,
        "name": "Shariatpur District",
        "countryId": 19,
        "countryCode": "BD",
        "stateId": "62",
        "latitude": "23.24232140",
        "longitude": "90.43477110"
    },
    {
        "id": 755,
        "name": "Sherpur District",
        "countryId": 19,
        "countryCode": "BD",
        "stateId": "57",
        "latitude": "25.07462350",
        "longitude": "90.14949040"
    },
    {
        "id": 781,
        "name": "Sirajganj District",
        "countryId": 19,
        "countryCode": "BD",
        "stateId": "59",
        "latitude": "24.31411150",
        "longitude": "89.56996150"
    },
    {
        "id": 812,
        "name": "Sunamganj District",
        "countryId": 19,
        "countryCode": "BD",
        "stateId": "61",
        "latitude": "25.07145350",
        "longitude": "91.39916270"
    },
    {
        "id": 767,
        "name": "Sylhet District",
        "countryId": 19,
        "countryCode": "BD",
        "stateId": "60",
        "latitude": "24.89933570",
        "longitude": "91.87004730"
    },
    {
        "id": 765,
        "name": "Sylhet Division",
        "countryId": 19,
        "countryCode": "BD",
        "stateId": "G",
        "latitude": "24.70498110",
        "longitude": "91.67606910"
    },
    {
        "id": 782,
        "name": "Tangail District",
        "countryId": 19,
        "countryCode": "BD",
        "stateId": "63",
        "latitude": "24.39174270",
        "longitude": "89.99482570"
    },
    {
        "id": 804,
        "name": "Thakurgaon District",
        "countryId": 19,
        "countryCode": "BD",
        "stateId": "64",
        "latitude": "26.04183920",
        "longitude": "88.42826160"
    },
    {
        "id": 1228,
        "name": "Christ Church",
        "countryId": 20,
        "countryCode": "BB",
        "stateId": "01",
        "latitude": "36.00604070",
        "longitude": "-95.92112100"
    },
    {
        "id": 1229,
        "name": "Saint Andrew",
        "countryId": 20,
        "countryCode": "BB",
        "stateId": "02",
        "latitude": null,
        "longitude": null
    },
    {
        "id": 1226,
        "name": "Saint George",
        "countryId": 20,
        "countryCode": "BB",
        "stateId": "03",
        "latitude": "37.09652780",
        "longitude": "-113.56841640"
    },
    {
        "id": 1224,
        "name": "Saint James",
        "countryId": 20,
        "countryCode": "BB",
        "stateId": "04",
        "latitude": "48.52356600",
        "longitude": "-1.32378850"
    },
    {
        "id": 1227,
        "name": "Saint John",
        "countryId": 20,
        "countryCode": "BB",
        "stateId": "05",
        "latitude": "45.27331530",
        "longitude": "-66.06330800"
    },
    {
        "id": 1223,
        "name": "Saint Joseph",
        "countryId": 20,
        "countryCode": "BB",
        "stateId": "06",
        "latitude": "39.76745780",
        "longitude": "-94.84668100"
    },
    {
        "id": 1221,
        "name": "Saint Lucy",
        "countryId": 20,
        "countryCode": "BB",
        "stateId": "07",
        "latitude": "38.76146250",
        "longitude": "-77.44914390"
    },
    {
        "id": 1230,
        "name": "Saint Michael",
        "countryId": 20,
        "countryCode": "BB",
        "stateId": "08",
        "latitude": "36.03597700",
        "longitude": "-95.84905200"
    },
    {
        "id": 1222,
        "name": "Saint Peter",
        "countryId": 20,
        "countryCode": "BB",
        "stateId": "09",
        "latitude": "37.08271190",
        "longitude": "-94.51712500"
    },
    {
        "id": 1220,
        "name": "Saint Philip",
        "countryId": 20,
        "countryCode": "BB",
        "stateId": "10",
        "latitude": "35.23311400",
        "longitude": "-89.43640420"
    },
    {
        "id": 1225,
        "name": "Saint Thomas",
        "countryId": 20,
        "countryCode": "BB",
        "stateId": "11",
        "latitude": "18.33809650",
        "longitude": "-64.89409460"
    },
    {
        "id": 2959,
        "name": "Brest Region",
        "countryId": 21,
        "countryCode": "BY",
        "stateId": "BR",
        "latitude": "52.52966410",
        "longitude": "25.46064800"
    },
    {
        "id": 2955,
        "name": "Gomel Region",
        "countryId": 21,
        "countryCode": "BY",
        "stateId": "HO",
        "latitude": "52.16487540",
        "longitude": "29.13332510"
    },
    {
        "id": 2956,
        "name": "Grodno Region",
        "countryId": 21,
        "countryCode": "BY",
        "stateId": "HR",
        "latitude": "53.65999450",
        "longitude": "25.34485710"
    },
    {
        "id": 2958,
        "name": "Minsk",
        "countryId": 21,
        "countryCode": "BY",
        "stateId": "HM",
        "latitude": "53.90060110",
        "longitude": "27.55897200"
    },
    {
        "id": 2957,
        "name": "Minsk Region",
        "countryId": 21,
        "countryCode": "BY",
        "stateId": "MI",
        "latitude": "54.10678890",
        "longitude": "27.41292450"
    },
    {
        "id": 2954,
        "name": "Mogilev Region",
        "countryId": 21,
        "countryCode": "BY",
        "stateId": "MA",
        "latitude": "53.51017910",
        "longitude": "30.40064440"
    },
    {
        "id": 2960,
        "name": "Vitebsk Region",
        "countryId": 21,
        "countryCode": "BY",
        "stateId": "VI",
        "latitude": "55.29598330",
        "longitude": "28.75836270"
    },
    {
        "id": 1381,
        "name": "Antwerp",
        "countryId": 22,
        "countryCode": "BE",
        "stateId": "VAN",
        "latitude": "51.21944750",
        "longitude": "4.40246430"
    },
    {
        "id": 1376,
        "name": "Brussels-Capital Region",
        "countryId": 22,
        "countryCode": "BE",
        "stateId": "BRU",
        "latitude": "50.85034630",
        "longitude": "4.35172110"
    },
    {
        "id": 1377,
        "name": "East Flanders",
        "countryId": 22,
        "countryCode": "BE",
        "stateId": "VOV",
        "latitude": "51.03621010",
        "longitude": "3.73731240"
    },
    {
        "id": 1373,
        "name": "Flanders",
        "countryId": 22,
        "countryCode": "BE",
        "stateId": "VLG",
        "latitude": "51.01087060",
        "longitude": "3.72646130"
    },
    {
        "id": 1374,
        "name": "Flemish Brabant",
        "countryId": 22,
        "countryCode": "BE",
        "stateId": "VBR",
        "latitude": "50.88154340",
        "longitude": "4.56459700"
    },
    {
        "id": 1375,
        "name": "Hainaut",
        "countryId": 22,
        "countryCode": "BE",
        "stateId": "WHT",
        "latitude": "50.52570760",
        "longitude": "4.06210170"
    },
    {
        "id": 1384,
        "name": "Liège",
        "countryId": 22,
        "countryCode": "BE",
        "stateId": "WLG",
        "latitude": "50.63255740",
        "longitude": "5.57966620"
    },
    {
        "id": 1372,
        "name": "Limburg",
        "countryId": 22,
        "countryCode": "BE",
        "stateId": "VLI",
        "latitude": null,
        "longitude": null
    },
    {
        "id": 1379,
        "name": "Luxembourg",
        "countryId": 22,
        "countryCode": "BE",
        "stateId": "WLX",
        "latitude": "49.81527300",
        "longitude": "6.12958300"
    },
    {
        "id": 1378,
        "name": "Namur",
        "countryId": 22,
        "countryCode": "BE",
        "stateId": "WNA",
        "latitude": "50.46738830",
        "longitude": "4.87198540"
    },
    {
        "id": 1380,
        "name": "Wallonia",
        "countryId": 22,
        "countryCode": "BE",
        "stateId": "WAL",
        "latitude": "50.41756370",
        "longitude": "4.45100660"
    },
    {
        "id": 1382,
        "name": "Walloon Brabant",
        "countryId": 22,
        "countryCode": "BE",
        "stateId": "WBR",
        "latitude": "50.63324100",
        "longitude": "4.52431500"
    },
    {
        "id": 1383,
        "name": "West Flanders",
        "countryId": 22,
        "countryCode": "BE",
        "stateId": "VWV",
        "latitude": "40.01793340",
        "longitude": "-105.28067330"
    },
    {
        "id": 264,
        "name": "Belize District",
        "countryId": 23,
        "countryCode": "BZ",
        "stateId": "BZ",
        "latitude": "17.56776790",
        "longitude": "-88.40160410"
    },
    {
        "id": 269,
        "name": "Cayo District",
        "countryId": 23,
        "countryCode": "BZ",
        "stateId": "CY",
        "latitude": "17.09844450",
        "longitude": "-88.94138650"
    },
    {
        "id": 266,
        "name": "Corozal District",
        "countryId": 23,
        "countryCode": "BZ",
        "stateId": "CZL",
        "latitude": "18.13492380",
        "longitude": "-88.24611830"
    },
    {
        "id": 268,
        "name": "Orange Walk District",
        "countryId": 23,
        "countryCode": "BZ",
        "stateId": "OW",
        "latitude": "17.76035300",
        "longitude": "-88.86469800"
    },
    {
        "id": 265,
        "name": "Stann Creek District",
        "countryId": 23,
        "countryCode": "BZ",
        "stateId": "SC",
        "latitude": "16.81166310",
        "longitude": "-88.40160410"
    },
    {
        "id": 267,
        "name": "Toledo District",
        "countryId": 23,
        "countryCode": "BZ",
        "stateId": "TOL",
        "latitude": "16.24919230",
        "longitude": "-88.86469800"
    },
    {
        "id": 3077,
        "name": "Alibori Department",
        "countryId": 24,
        "countryCode": "BJ",
        "stateId": "AL",
        "latitude": "10.96810930",
        "longitude": "2.77798130"
    },
    {
        "id": 3076,
        "name": "Atakora Department",
        "countryId": 24,
        "countryCode": "BJ",
        "stateId": "AK",
        "latitude": "10.79549310",
        "longitude": "1.67606910"
    },
    {
        "id": 3079,
        "name": "Atlantique Department",
        "countryId": 24,
        "countryCode": "BJ",
        "stateId": "AQ",
        "latitude": "6.65883910",
        "longitude": "2.22366670"
    },
    {
        "id": 3078,
        "name": "Borgou Department",
        "countryId": 24,
        "countryCode": "BJ",
        "stateId": "BO",
        "latitude": "9.53408640",
        "longitude": "2.77798130"
    },
    {
        "id": 3070,
        "name": "Collines Department",
        "countryId": 24,
        "countryCode": "BJ",
        "stateId": "CO",
        "latitude": "8.30222970",
        "longitude": "2.30244600"
    },
    {
        "id": 3072,
        "name": "Donga Department",
        "countryId": 24,
        "countryCode": "BJ",
        "stateId": "DO",
        "latitude": "9.71918670",
        "longitude": "1.67606910"
    },
    {
        "id": 3071,
        "name": "Kouffo Department",
        "countryId": 24,
        "countryCode": "BJ",
        "stateId": "KO",
        "latitude": "7.00358940",
        "longitude": "1.75388170"
    },
    {
        "id": 3081,
        "name": "Littoral Department",
        "countryId": 24,
        "countryCode": "BJ",
        "stateId": "LI",
        "latitude": "6.38069730",
        "longitude": "2.44063870"
    },
    {
        "id": 3075,
        "name": "Mono Department",
        "countryId": 24,
        "countryCode": "BJ",
        "stateId": "MO",
        "latitude": "37.92186080",
        "longitude": "-118.95286450"
    },
    {
        "id": 3080,
        "name": "Ouémé Department",
        "countryId": 24,
        "countryCode": "BJ",
        "stateId": "OU",
        "latitude": "6.61481520",
        "longitude": "2.49999180"
    },
    {
        "id": 3074,
        "name": "Plateau Department",
        "countryId": 24,
        "countryCode": "BJ",
        "stateId": "PL",
        "latitude": "7.34451410",
        "longitude": "2.53960300"
    },
    {
        "id": 3073,
        "name": "Zou Department",
        "countryId": 24,
        "countryCode": "BJ",
        "stateId": "ZO",
        "latitude": "7.34692680",
        "longitude": "2.06651970"
    },
    {
        "id": 4860,
        "name": "Devonshire Parish",
        "countryId": 25,
        "countryCode": "BM",
        "stateId": "DEV",
        "latitude": "32.30380620",
        "longitude": "-64.76069540"
    },
    {
        "id": 4862,
        "name": "Hamilton Municipality",
        "countryId": 25,
        "countryCode": "BM",
        "stateId": "HAM",
        "latitude": "43.32394400",
        "longitude": "-79.90592190"
    },
    {
        "id": 4861,
        "name": "Hamilton Parish",
        "countryId": 25,
        "countryCode": "BM",
        "stateId": "HA",
        "latitude": "32.34494320",
        "longitude": "-64.72365000"
    },
    {
        "id": 4863,
        "name": "Paget Parish",
        "countryId": 25,
        "countryCode": "BM",
        "stateId": "PAG",
        "latitude": "32.28107400",
        "longitude": "-64.77847870"
    },
    {
        "id": 4864,
        "name": "Pembroke Parish",
        "countryId": 25,
        "countryCode": "BM",
        "stateId": "PEM",
        "latitude": "32.30076720",
        "longitude": "-64.79626300"
    },
    {
        "id": 4865,
        "name": "Saint George's Municipality",
        "countryId": 25,
        "countryCode": "BM",
        "stateId": "SG",
        "latitude": "37.09652780",
        "longitude": "-113.56841640"
    },
    {
        "id": 4866,
        "name": "Saint George's Parish",
        "countryId": 25,
        "countryCode": "BM",
        "stateId": "SGE",
        "latitude": "17.12577590",
        "longitude": "-62.56198110"
    },
    {
        "id": 4867,
        "name": "Sandys Parish",
        "countryId": 25,
        "countryCode": "BM",
        "stateId": "SAN",
        "latitude": "32.29995280",
        "longitude": "-64.86741030"
    },
    {
        "id": 4868,
        "name": "Smith's Parish,",
        "countryId": 25,
        "countryCode": "BM",
        "stateId": "SMI",
        "latitude": "32.31339660",
        "longitude": "-64.73105880"
    },
    {
        "id": 4869,
        "name": "Southampton Parish",
        "countryId": 25,
        "countryCode": "BM",
        "stateId": "SOU",
        "latitude": "32.25400950",
        "longitude": "-64.82590580"
    },
    {
        "id": 4870,
        "name": "Warwick Parish",
        "countryId": 25,
        "countryCode": "BM",
        "stateId": "WAR",
        "latitude": "32.26615340",
        "longitude": "-64.80811980"
    },